     3.03           OBSERVATION DATA    G: GPS              RINEX VERSION / TYPE
RTKCONV 2.4.3 b29                       20180608 014639 UTC PGM / RUN BY / DATE 
log: C:\Users\10156\Desktop\3.rtcm3                         COMMENT             
format: RTCM 3                                              COMMENT             
                                                            MARKER NAME         
                                                            MARKER NUMBER       
                                                            MARKER TYPE         
                                                            OBSERVER / AGENCY   
                                                            REC # / TYPE / VERS 
                    ADVNULLANTENNA                          ANT # / TYPE        
 -2177406.4770  4373276.4104  4086815.4428                  APPROX POSITION XYZ 
        0.0000        0.0000        0.0000                  ANTENNA: DELTA H/E/N
G    8 C1C L1C D1C S1C C1W L1W D1W S1W                      SYS / # / OBS TYPES 
  2018     6     8     1    40    9.0000000     GPS         TIME OF FIRST OBS   
  2018     6     8     1    46   57.0000000     GPS         TIME OF LAST OBS    
G                                                           SYS / PHASE SHIFT   
  0                                                         GLONASS SLOT / FRQ #
 C1C    0.000 C1P    0.000 C2C    0.000 C2P    0.000        GLONASS COD/PHS/BIS 
                                                            END OF HEADER       
> 2018  6  8  1 40  9.0000000  0  9                     
G 4  23022612.476   120984636.163                          42.000                                                                  
G 8  22697403.977   119275677.670                          45.000                                                                  
G 9  22201317.228   116668725.835                          47.000                                                                  
G16  20469393.967   107567408.067                          49.000                                                                  
G21  24444382.141   128456108.488                          41.000                                                                  
G23  21324024.109   112058511.847                          48.000                                                                  
G26  21982101.645   115516747.875                          45.000                                                                  
G27  20390033.579   107150390.486                          51.000                                                                  
G31  24130734.561   126807847.666                          42.000                                                                  
> 2018  6  8  1 40 10.0000000  0  9                     
G 4  23023165.451   120987542.455                          42.000                                                                  
G 8  22696755.117   119272268.539                          45.000                                                                  
G 9  22201053.285   116667338.461                          47.000                                                                  
G16  20469629.212   107568644.371                          49.000                                                                  
G21  24444376.923   128456080.496                          41.000                                                                  
G23  21324145.689   112059150.987                          48.000                                                                  
G26  21982532.825   115519013.871                          45.000                                                                  
G27  20389721.783   107148751.893                          51.000                                                                  
G31  24131293.093   126810782.754                          42.000                                                                  
> 2018  6  8  1 40 11.0000000  0  9                     
G 4  23023718.461   120990448.495                          42.000                                                                  
G 8  22696106.347   119268859.373                          45.000                                                                  
G 9  22200789.306   116665951.379                          47.000                                                                  
G16  20469864.529   107569880.672                          49.000                                                                  
G21  24444371.706   128456052.645                          41.000                                                                  
G23  21324267.395   112059790.430                          48.000                                                                  
G26  21982964.022   115521279.685                          45.000                                                                  
G27  20389410.111   107147113.596                          51.000                                                                  
G31  24131851.500   126813717.693                          42.000                                                                  
> 2018  6  8  1 40 12.0000000  0  9                     
G 4  23024271.597   120993354.568                          42.000                                                                  
G 8  22695457.594   119265450.486                          45.000                                                                  
G 9  22200525.470   116664564.887                          47.000                                                                  
G16  20470099.847   107571117.280                          49.000                                                                  
G21  24444366.595   128456025.299                          41.000                                                                  
G23  21324389.244   112060430.518                          48.000                                                                  
G26  21983395.184   115523545.663                          45.000                                                                  
G27  20389098.565   107145475.921                          51.000                                                                  
G31  24132410.068   126816652.787                          42.000                                                                  
> 2018  6  8  1 40 13.0000000  0  9                     
G 4  23024824.697   120996260.913                          42.000                                                                  
G 8  22694808.931   119262042.075                          45.000                                                                  
G 9  22200261.741   116663179.185                          47.000                                                                  
G16  20470335.235   107572354.394                          49.000                                                                  
G21  24444361.485   128455998.584                          40.000                                                                  
G23  21324511.218   112061071.446                          48.000                                                                  
G26  21983826.470   115525811.958                          45.000                                                                  
G27  20388787.126   107143839.057                          51.000                                                                  
G31  24132968.653   126819588.221                          42.000                                                                  
> 2018  6  8  1 40 14.0000000  0  9                     
G 4  23025377.957   120999167.616                          42.000                                                                  
G 8  22694160.428   119258634.256                          45.000                                                                  
G 9  22199998.191   116661794.381                          47.000                                                                  
G16  20470570.767   107573592.124                          49.000                                                                  
G21  24444356.499   128455972.702                          40.000                                                                  
G23  21324633.371   112061713.292                          48.000                                                                  
G26  21984257.704   115528078.696                          45.000                                                                  
G27  20388475.811   107142203.108                          51.000                                                                  
G31  24133527.471   126822524.116                          42.000                                                                  
> 2018  6  8  1 40 15.0000000  0  9                     
G 4  23025931.236   121002074.460                          42.000                                                                  
G 8  22693511.961   119255226.803                          45.000                                                                  
G 9  22199734.784   116660410.260                          47.000                                                                  
G16  20470806.370   107574830.247                          49.000                                                                  
G21  24444351.603   128455947.351                          41.000                                                                  
G23  21324755.666   112062355.860                          48.000                                                                  
G26  21984689.187   115530345.669                          45.000                                                                  
G27  20388164.622   107140567.860                          51.000                                                                  
G31  24134086.093   126825460.270                          42.000                                                                  
> 2018  6  8  1 40 16.0000000  0  9                     
G 4  23026484.425   121004981.231                          42.000                                                                  
G 8  22692863.530   119251819.533                          44.000                                                                  
G 9  22199471.448   116659026.615                          47.000                                                                  
G16  20471042.027   107576068.558                          49.000                                                                  
G21  24444346.850   128455922.353                          40.000                                                                  
G23  21324878.016   112062998.968                          48.000                                                                  
G26  21985120.581   115532612.663                          45.000                                                                  
G27  20387853.559   107138933.120                          51.000                                                                  
G31  24134644.875   126828396.435                          42.000                                                                  
> 2018  6  8  1 40 17.0000000  0  9                     
G 4  23027037.614   121007888.242                          42.000                                                                  
G 8  22692215.278   119248412.703                          44.000                                                                  
G 9  22199208.255   116657643.744                          47.000                                                                  
G16  20471277.790   107577307.356                          48.000                                                                  
G21  24444342.329   128455898.023                          40.000                                                                  
G23  21325000.526   112063642.865                          48.000                                                                  
G26  21985552.046   115534879.973                          45.000                                                                  
G27  20387542.602   107137299.166                          51.000                                                                  
G31  24135203.925   126831332.937                          42.000                                                                  
> 2018  6  8  1 40 18.0000000  0  9                     
G 4  23027590.839   121010795.227                          42.000                                                                  
G 8  22691566.972   119245006.055                          44.000                                                                  
G 9  22198945.151   116656261.396                          47.000                                                                  
G16  20471513.608   107578546.371                          48.000                                                                  
G21  24444337.808   128455874.051                          40.000                                                                  
G23  21325123.161   112064287.322                          48.000                                                                  
G26  21985983.530   115537147.348                          45.000                                                                  
G27  20387231.770   107135665.752                          50.000                                                                  
G31  24135762.797   126834269.510                          42.000                                                                  
> 2018  6  8  1 40 19.0000000  0  9                     
G 4  23028143.957   121013702.004                          42.000                                                                  
G 8  22690918.612   119241599.466                          44.000                                                                  
G 9  22198682.137   116654879.382                          47.000                                                                  
G16  20471749.390   107579785.442                          48.000                                                                  
G21  24444333.252   128455850.315                          40.000                                                                  
G23  21325245.849   112064932.159                          48.000                                                                  
G26  21986414.995   115539414.603                          45.000                                                                  
G27  20386921.064   107134032.693                          51.000                                                                  
G31  24136321.615   126837205.986                          42.000                                                                  
> 2018  6  8  1 40 20.0000000  0  9                     
G 4  23028697.110   121016609.009                          42.000                                                                  
G 8  22690270.431   119238193.313                          44.000                                                                  
G 9  22198419.338   116653498.132                          47.000                                                                  
G16  20471985.243   107581024.985                          48.000                                                                  
G21  24444328.820   128455827.221                          40.000                                                                  
G23  21325368.681   112065577.799                          48.000                                                                  
G26  21986846.478   115541682.174                          45.000                                                                  
G27  20386610.464   107132400.424                          51.000                                                                  
G31  24136880.308   126840142.771                          42.000                                                                  
> 2018  6  8  1 40 21.0000000  0  9                     
G 4  23029250.210   121019516.123                          42.000                                                                  
G 8  22689622.322   119234787.513                          45.000                                                                  
G 9  22198156.699   116652117.553                          47.000                                                                  
G16  20472221.203   107582264.907                          49.000                                                                  
G21  24444324.567   128455804.664                          40.000                                                                  
G23  21325491.638   112066224.132                          48.000                                                                  
G26  21987278.033   115543949.942                          45.000                                                                  
G27  20386299.990   107130768.839                          51.000                                                                  
G31  24137439.126   126843079.810                          42.000                                                                  
> 2018  6  8  1 40 22.0000000  0  9                     
G 4  23029803.471   121022423.076                          42.000                                                                  
G 8  22688974.230   119231381.784                          45.000                                                                  
G 9  22197894.042   116650737.338                          47.000                                                                  
G16  20472457.092   107583504.902                          49.000                                                                  
G21  24444320.136   128455782.347                          40.000                                                                  
G23  21325614.720   112066870.864                          48.000                                                                  
G26  21987709.552   115546217.631                          45.000                                                                  
G27  20385989.641   107129137.634                          51.000                                                                  
G31  24137997.747   126846016.756                          42.000                                                                  
> 2018  6  8  1 40 23.0000000  0  9                     
G 4  23030356.732   121025330.345                          42.000                                                                  
G 8  22688326.299   119227976.594                          45.000                                                                  
G 9  22197631.492   116649357.998                          47.000                                                                  
G16  20472693.124   107584745.481                          49.000                                                                  
G21  24444316.044   128455760.794                          40.000                                                                  
G23  21325737.944   112067518.508                          48.000                                                                  
G26  21988141.107   115548485.731                          45.000                                                                  
G27  20385679.399   107127507.319                          51.000                                                                  
G31  24138556.529   126848954.127                          42.000                                                                  
> 2018  6  8  1 40 24.0000000  0  9                     
G 4  23030910.028   121028237.644                          42.000                                                                  
G 8  22687678.404   119224571.657                          45.000                                                                  
G 9  22197369.157   116647979.212                          47.000                                                                  
G16  20472929.228   107585986.336                          49.000                                                                  
G21  24444311.952   128455739.674                          40.000                                                                  
G23  21325861.258   112068166.740                          48.000                                                                  
G26  21988572.662   115550753.922                          45.000                                                                  
G27  20385369.300   107125877.588                          51.000                                                                  
G31  24139115.597   126851891.627                          42.000                                                                  
> 2018  6  8  1 40 25.0000000  0  9                     
G 4  23031463.325   121031145.128                          42.000                                                                  
G 8  22687030.563   119221167.142                          45.000                                                                  
G 9  22197106.947   116646601.174                          47.000                                                                  
G16  20473165.456   107587227.637                          48.000                                                                  
G21  24444307.895   128455719.162                          40.000                                                                  
G23  21325984.733   112068815.763                          48.000                                                                  
G26  21989004.288   115553022.417                          45.000                                                                  
G27  20385059.290   107124248.612                          51.000                                                                  
G31  24139674.773   126854829.397                          42.000                                                                  
> 2018  6  8  1 40 26.0000000  0  9                     
G 4  23032016.532   121034052.577                          42.000                                                                  
G 8  22686382.721   119217762.809                          45.000                                                                  
G 9  22196844.773   116645223.627                          46.000                                                                  
G16  20473401.685   107588469.141                          48.000                                                                  
G21  24444304.179   128455699.032                          40.000                                                                  
G23  21326108.316   112069465.309                          48.000                                                                  
G26  21989436.039   115555290.937                          45.000                                                                  
G27  20384749.423   107122620.151                          51.000                                                                  
G31  24140233.877   126857767.250                          42.000                                                                  
> 2018  6  8  1 40 27.0000000  0  9                     
G 4  23032569.792   121036959.978                          42.000                                                                  
G 8  22685735.005   119214358.667                          44.000                                                                  
G 9  22196582.742   116643846.581                          46.000                                                                  
G16  20473637.949   107589710.855                          48.000                                                                  
G21  24444300.408   128455679.275                          40.000                                                                  
G23  21326232.023   112070115.395                          48.000                                                                  
G26  21989867.665   115557559.497                          45.000                                                                  
G27  20384439.664   107120992.210                          51.000                                                                  
G31  24140793.016   126860705.134                          42.000                                                                  
> 2018  6  8  1 40 28.0000000  0  9                     
G 4  23033123.124   121039867.670                          42.000                                                                  
G 8  22685087.378   119210955.035                          45.000                                                                  
G 9  22196320.764   116642470.337                          47.000                                                                  
G16  20473874.374   107590953.104                          48.000                                                                  
G21  24444296.709   128455660.204                          40.000                                                                  
G23  21326355.945   112070766.335                          48.000                                                                  
G26  21990299.524   115559828.422                          45.000                                                                  
G27  20384130.029   107119365.111                          51.000                                                                  
G31  24141352.102   126863643.412                          42.000                                                                  
> 2018  6  8  1 40 29.0000000  0  9                     
G 4  23033676.367   121042775.486                          42.000                                                                  
G 8  22684439.733   119207551.771                          45.000                                                                  
G 9  22196059.054   116641094.784                          47.000                                                                  
G16  20474110.817   107592195.717                          49.000                                                                  
G21  24444293.171   128455641.673                          40.000                                                                  
G23  21326479.991   112071417.973                          48.000                                                                  
G26  21990731.311   115562097.569                          45.000                                                                  
G27  20383820.520   107117738.702                          51.000                                                                  
G31  24141911.295   126866581.896                          42.000                                                                  
> 2018  6  8  1 40 30.0000000  0  9                     
G 4  23034229.717   121045683.128                          42.000                                                                  
G 8  22683792.142   119204148.582                          45.000                                                                  
G 9  22195797.416   116639719.602                          47.000                                                                  
G16  20474347.295   107593438.435                          48.000                                                                  
G21  24444289.651   128455623.423                          40.000                                                                  
G23  21326604.074   112072070.037                          48.000                                                                  
G26  21991163.205   115564366.628                          45.000                                                                  
G27  20383511.136   107116112.689                          51.000                                                                  
G31  24142470.471   126869520.347                          42.000                                                                  
> 2018  6  8  1 40 31.0000000  0  9                     
G 4  23034782.907   121048590.767                          42.000                                                                  
G 8  22683144.568   119200745.620                          45.000                                                                  
G 9  22195535.867   116638344.966                          47.000                                                                  
G16  20474583.828   107594681.397                          48.000                                                                  
G21  24444286.149   128455605.555                          40.000                                                                  
G23  21326728.192   112072722.679                          48.000                                                                  
G26  21991595.046   115566635.781                          45.000                                                                  
G27  20383201.859   107114487.236                          51.000                                                                  
G31  24143029.628   126872458.871                          42.000                                                                  
> 2018  6  8  1 40 32.0000000  0  9                     
G 4  23035336.310   121051498.627                          42.000                                                                  
G 8  22682497.245   119197343.109                          45.000                                                                  
G 9  22195274.461   116636971.086                          47.000                                                                  
G16  20474820.467   107595924.832                          48.000                                                                  
G21  24444282.843   128455588.362                          40.000                                                                  
G23  21326852.453   112073376.110                          48.000                                                                  
G26  21992026.922   115568905.213                          45.000                                                                  
G27  20382892.707   107112862.567                          51.000                                                                  
G31  24143588.911   126875397.715                          42.000                                                                  
> 2018  6  8  1 40 33.0000000  0  9                     
G 4  23035889.589   121054406.586                          42.000                                                                  
G 8  22681849.922   119193940.913                          45.000                                                                  
G 9  22195013.180   116635597.852                          47.000                                                                  
G16  20475057.178   107597168.603                          48.000                                                                  
G21  24444279.787   128455571.651                          40.000                                                                  
G23  21326976.929   112074030.214                          48.000                                                                  
G26  21992458.817   115571174.848                          45.000                                                                  
G27  20382583.662   107111238.555                          51.000                                                                  
G31  24144148.193   126878336.750                          42.000                                                                  
> 2018  6  8  1 40 34.0000000  0  9                     
G 4  23036443.064   121057314.695                          42.000                                                                  
G 8  22681202.617   119190539.098                          45.000                                                                  
G 9  22194751.953   116634225.311                          47.000                                                                  
G16  20475293.871   107598412.795                          48.000                                                                  
G21  24444276.625   128455555.535                          40.000                                                                  
G23  21327101.476   112074685.050                          48.000                                                                  
G26  21992890.747   115573444.720                          45.000                                                                  
G27  20382274.760   107109615.263                          51.000                                                                  
G31  24144707.512   126881276.037                          42.000                                                                  
> 2018  6  8  1 40 35.0000000  0  9                     
G 4  23036996.432   121060222.771                          42.000                                                                  
G 8  22680555.293   119187137.476                          45.000                                                                  
G 9  22194490.815   116632853.289                          47.000                                                                  
G16  20475530.654   107599657.215                          48.000                                                                  
G21  24444273.533   128455539.809                          40.000                                                                  
G23  21327226.237   112075340.457                          48.000                                                                  
G26  21993322.695   115575714.657                          45.000                                                                  
G27  20381965.966   107107992.498                          51.000                                                                  
G31  24145266.866   126884215.410                          42.000                                                                  
> 2018  6  8  1 40 36.0000000  0  9                     
G 4  23037549.692   121063130.956                          42.000                                                                  
G 8  22679908.059   119183736.189                          45.000                                                                  
G 9  22194229.802   116631481.892                          47.000                                                                  
G16  20475767.597   107600901.967                          48.000                                                                  
G21  24444270.406   128455524.603                          40.000                                                                  
G23  21327351.106   112075996.514                          48.000                                                                  
G26  21993754.714   115577984.772                          45.000                                                                  
G27  20381657.278   107106370.391                          51.000                                                                  
G31  24145826.130   126887154.970                          42.000                                                                  
> 2018  6  8  1 40 37.0000000  0  9                     
G 4  23038102.989   121066038.907                          42.000                                                                  
G 8  22679260.808   119180334.897                          44.000                                                                  
G 9  22193968.914   116630110.836                          46.000                                                                  
G16  20476004.487   107602146.760                          48.000                                                                  
G21  24444267.440   128455509.593                          40.000                                                                  
G23  21327476.064   112076652.953                          48.000                                                                  
G26  21994186.680   115580254.739                          45.000                                                                  
G27  20381348.734   107104748.635                          51.000                                                                  
G31  24146385.663   126890094.413                          42.000                                                                  
> 2018  6  8  1 40 38.0000000  0  9                     
G 4  23038656.410   121068946.957                          42.000                                                                  
G 8  22678613.663   119176933.959                          44.000                                                                  
G 9  22193708.134   116628740.437                          47.000                                                                  
G16  20476241.466   107603391.923                          48.000                                                                  
G21  24444264.634   128455495.111                          40.000                                                                  
G23  21327601.076   112077310.064                          48.000                                                                  
G26  21994618.628   115582524.919                          45.000                                                                  
G27  20381040.297   107103127.546                          51.000                                                                  
G31  24146944.999   126893034.061                          42.000                                                                  
> 2018  6  8  1 40 39.0000000  0  9                     
G 4  23039209.814   121071855.089                          42.000                                                                  
G 8  22677966.501   119173533.323                          44.000                                                                  
G 9  22193447.443   116627370.622                          47.000                                                                  
G16  20476478.427   107604637.400                          48.000                                                                  
G21  24444261.901   128455481.123                          40.000                                                                  
G23  21327726.231   112077967.824                          48.000                                                                  
G26  21995050.629   115584795.231                          45.000                                                                  
G27  20380731.984   107101507.076                          51.000                                                                  
G31  24147504.442   126895973.871                          42.000                                                                  
> 2018  6  8  1 40 40.0000000  0  9                     
G 4  23039763.343   121074763.518                          42.000                                                                  
G 8  22677319.321   119170133.228                          44.000                                                                  
G 9  22193186.930   116626001.675                          47.000                                                                  
G16  20476715.513   107605883.428                          48.000                                                                  
G21  24444259.256   128455467.836                          40.000                                                                  
G23  21327851.671   112078626.464                          48.000                                                                  
G26  21995482.809   115587065.948                          45.000                                                                  
G27  20380423.780   107099887.490                          51.000                                                                  
G31  24148063.939   126898914.083                          42.000                                                                  
> 2018  6  8  1 40 41.0000000  0  9                     
G 4  23040316.800   121077671.961                          42.000                                                                  
G 8  22676672.194   119166733.347                          44.000                                                                  
G 9  22192926.525   116624633.245                          47.000                                                                  
G16  20476952.670   107607129.703                          48.000                                                                  
G21  24444256.826   128455454.977                          40.000                                                                  
G23  21327977.112   112079285.676                          48.000                                                                  
G26  21995914.990   115589336.733                          45.000                                                                  
G27  20380115.718   107098268.443                          51.000                                                                  
G31  24148623.454   126901854.391                          42.000                                                                  
> 2018  6  8  1 40 42.0000000  0  9                     
G 4  23040870.239   121080580.217                          42.000                                                                  
G 8  22676025.174   119163333.542                          44.000                                                                  
G 9  22192666.245   116623265.211                          46.000                                                                  
G16  20477189.864   107608376.069                          48.000                                                                  
G21  24444254.431   128455442.368                          40.000                                                                  
G23  21328102.695   112079945.296                          48.000                                                                  
G26  21996347.080   115591607.439                          45.000                                                                  
G27  20379807.763   107096649.798                          51.000                                                                  
G31  24149183.148   126904794.632                          42.000                                                                  
> 2018  6  8  1 40 43.0000000  0  9                     
G 4  23041423.607   121083488.434                          42.000                                                                  
G 8  22675378.244   119159933.927                          45.000                                                                  
G 9  22192405.982   116621897.682                          47.000                                                                  
G16  20477427.075   107609622.652                          48.000                                                                  
G21  24444252.305   128455430.152                          40.000                                                                  
G23  21328228.314   112080605.479                          48.000                                                                  
G26  21996779.225   115593878.209                          45.000                                                                  
G27  20379499.933   107095031.679                          51.000                                                                  
G31  24149742.645   126907734.935                          42.000                                                                  
> 2018  6  8  1 40 44.0000000  0  9                     
G 4  23041976.957   121086396.965                          42.000                                                                  
G 8  22674731.421   119156534.830                          45.000                                                                  
G 9  22192145.863   116620530.974                          47.000                                                                  
G16  20477664.376   107610869.769                          49.000                                                                  
G21  24444250.071   128455418.628                          40.000                                                                  
G23  21328354.112   112081266.522                          48.000                                                                  
G26  21997211.494   115596149.343                          45.000                                                                  
G27  20379192.211   107093414.425                          51.000                                                                  
G31  24150302.285   126910675.628                          42.000                                                                  
> 2018  6  8  1 40 45.0000000  0  9                     
G 4  23042530.504   121089305.385                          42.000                                                                  
G 8  22674084.688   119153135.870                          45.000                                                                  
G 9  22191885.833   116619164.727                          47.000                                                                  
G16  20477901.748   107612117.042                          48.000                                                                  
G21  24444247.873   128455407.433                          40.000                                                                  
G23  21328479.964   112081928.056                          48.000                                                                  
G26  21997643.710   115598420.456                          45.000                                                                  
G27  20378884.613   107091797.632                          51.000                                                                  
G31  24150861.960   126913616.335                          42.000                                                                  
> 2018  6  8  1 40 46.0000000  0  9                     
G 4  23043084.015   121092214.316                          42.000                                                                  
G 8  22673437.990   119149737.644                          45.000                                                                  
G 9  22191626.035   116617799.542                          47.000                                                                  
G16  20478139.263   107613365.086                          48.000                                                                  
G21  24444245.926   128455397.189                          40.000                                                                  
G23  21328606.048   112082590.677                          48.000                                                                  
G26  21998076.016   115600692.189                          45.000                                                                  
G27  20378577.141   107090181.913                          51.000                                                                  
G31  24151421.815   126916557.639                          42.000                                                                  
> 2018  6  8  1 40 47.0000000  0  9                     
G 4  23043637.615   121095123.390                          42.000                                                                  
G 8  22672791.489   119146339.787                          45.000                                                                  
G 9  22191366.381   116616435.018                          47.000                                                                  
G16  20478376.832   107614613.512                          48.000                                                                  
G21  24444244.264   128455387.479                          40.000                                                                  
G23  21328732.310   112083254.010                          48.000                                                                  
G26  21998508.410   115602964.121                          45.000                                                                  
G27  20378269.794   107088566.898                          51.000                                                                  
G31  24151981.580   126919499.191                          42.000                                                                  
> 2018  6  8  1 40 48.0000000  0  9                     
G 4  23044191.162   121098032.508                          42.000                                                                  
G 8  22672144.952   119142942.227                          45.000                                                                  
G 9  22191106.815   116615071.110                          47.000                                                                  
G16  20478614.436   107615862.255                          48.000                                                                  
G21  24444242.727   128455378.247                          40.000                                                                  
G23  21328858.716   112083917.981                          48.000                                                                  
G26  21998940.823   115605236.206                          45.000                                                                  
G27  20377962.554   107086952.503                          51.000                                                                  
G31  24152541.363   126922440.900                          42.000                                                                  
> 2018  6  8  1 40 49.0000000  0  9                     
G 4  23044744.780   121100941.761                          42.000                                                                  
G 8  22671498.468   119139545.028                          45.000                                                                  
G 9  22190847.393   116613707.874                          47.000                                                                  
G16  20478852.183   107617111.376                          48.000                                                                  
G21  24444241.172   128455369.576                          40.000                                                                  
G23  21328985.246   112084582.666                          48.000                                                                  
G26  21999373.271   115607508.478                          45.000                                                                  
G27  20377655.439   107085338.803                          51.000                                                                  
G31  24153101.163   126925382.831                          42.000                                                                  
> 2018  6  8  1 40 50.0000000  0  9                     
G 4  23045298.326   121103850.668                          42.000                                                                  
G 8  22670851.967   119136147.720                          45.000                                                                  
G 9  22190588.060   116612344.840                          47.000                                                                  
G16  20479089.859   107618360.398                          48.000                                                                  
G21  24444239.403   128455360.984                          40.000                                                                  
G23  21329111.741   112085247.574                          48.000                                                                  
G26  21999805.612   115609780.522                          45.000                                                                  
G27  20377348.449   107083725.314                          51.000                                                                  
G31  24153660.839   126928324.527                          42.000                                                                  
> 2018  6  8  1 40 51.0000000  0  9                     
G 4  23045851.909   121106759.687                          42.000                                                                  
G 8  22670205.555   119132750.738                          45.000                                                                  
G 9  22190328.905   116610982.455                          47.000                                                                  
G16  20479327.589   107619609.780                          48.000                                                                  
G21  24444237.795   128455352.905                          40.000                                                                  
G23  21329238.414   112085913.183                          48.000                                                                  
G26  22000237.935   115612052.747                          45.000                                                                  
G27  20377041.567   107082112.503                          51.000                                                                  
G31  24154220.676   126931266.417                          42.000                                                                  
> 2018  6  8  1 40 52.0000000  0  9                     
G 4  23046405.419   121109668.679                          42.000                                                                  
G 8  22669559.108   119129353.961                          44.000                                                                  
G 9  22190069.822   116609620.598                          47.000                                                                  
G16  20479565.354   107620859.394                          48.000                                                                  
G21  24444236.348   128455345.229                          40.000                                                                  
G23  21329365.177   112086579.338                          48.000                                                                  
G26  22000670.401   115614325.067                          45.000                                                                  
G27  20376734.827   107080500.235                          51.000                                                                  
G31  24154780.423   126934208.413                          42.000                                                                  
> 2018  6  8  1 40 53.0000000  0  9                     
G 4  23046959.037   121112577.838                          42.000                                                                  
G 8  22668912.767   119125957.569                          44.000                                                                  
G 9  22189810.864   116608259.422                          47.000                                                                  
G16  20479803.244   107622109.411                          48.000                                                                  
G21  24444235.061   128455338.130                          40.000                                                                  
G23  21329492.101   112087246.224                          48.000                                                                  
G26  22001102.796   115616597.592                          45.000                                                                  
G27  20376428.195   107078888.680                          51.000                                                                  
G31  24155340.331   126937150.629                          42.000                                                                  
> 2018  6  8  1 40 54.0000000  0  9                     
G 4  23047512.566   121115487.212                          42.000                                                                  
G 8  22668266.534   119122561.643                          44.000                                                                  
G 9  22189552.103   116606899.041                          47.000                                                                  
G16  20480041.170   107623359.914                          48.000                                                                  
G21  24444233.667   128455331.692                          40.000                                                                  
G23  21329619.239   112087913.919                          48.000                                                                  
G26  22001535.298   115618870.445                          45.000                                                                  
G27  20376121.669   107077277.914                          51.000                                                                  
G31  24155900.221   126940093.197                          42.000                                                                  
> 2018  6  8  1 40 55.0000000  0  9                     
G 4  23048066.327   121118396.477                          42.000                                                                  
G 8  22667620.336   119119165.870                          44.000                                                                  
G 9  22189293.306   116605539.094                          47.000                                                                  
G16  20480279.132   107624610.567                          48.000                                                                  
